verdict,tier,code,name,city,country,lat,lon,population,leisure,visitors,gateway,bestDemand,bestPartner,bestKm,nearestKm,nearest
ADD,SPARSE,JJN,Jinjiang Intl,Quanzhou,CN,24.8,118.59,8.7,0,0,0,13378,PVG,772,55,XMN
ADD,SPARSE,CZX,Benniu Intl,Changzhou,CN,31.92,119.78,5.3,0,0,0,12469,PVG,210,71,YTY
ADD,SPARSE,JIU,Lushan,Jiujiang,CN,29.48,115.8,4.6,1,0,0,11234,PVG,605,70,KHN
ADD,SPARSE,HNY,Nanyue,Hengyang,CN,26.91,112.62,6.6,0,0,0,10899,PVG,1008,154,CSX
ADD,SPARSE,AQG,Tianzhushan,Anqing,CN,30.58,117.05,4.2,0,0,0,10230,PVG,458,84,HFE
ADD,SPARSE,WHA,Wuhu Xuanzhou,Wuhu,CN,31.39,118.41,3.6,0,0,0,9892,PVG,323,58,NKG
ADD,SPARSE,KNU,Chakeri,Kanpur,IN,26.4,80.41,3.1,0,0,0,9058,DEL,405,62,LKO
ADD,SPARSE,WEH,Dashuibo,Weihai,CN,37.19,122.23,2.9,1,0,0,8735,PVG,674,121,YNT
ADD,MID,PBC,Hermanos Serdan,Puebla,MX,19.16,-98.37,3.2,0,0,0,8719,MEX,80,80,MEX
ADD,SPARSE,WUT,Wutaishan,Xinzhou,CN,38.6,112.97,2.7,1,0,0,8080,PKX,314,99,TYN
ADD,SPARSE,AOG,Tengao,Anshan,CN,41.1,122.85,3.3,0,0,0,7906,HND,1597,75,YYK
ADD,SPARSE,LUH,Sahnewal,Ludhiana,IN,30.85,75.95,1.7,0,0,0,6995,DEL,278,83,IXC
ADD,SPARSE,HSN,Putuoshan,Zhoushan,CN,29.93,122.36,1.2,1,0,0,6667,PVG,145,87,NGB
ADD,SPARSE,LNJ,Boshang,Lincang,CN,23.74,100.03,2.3,0,0,0,5234,DAC,980,142,SYM
ADD,SPARSE,ALP,Aleppo Intl,Aleppo,SY,36.18,37.22,2,0,0,0,5162,CAI,865,89,GZT
ADD,SPARSE,KMS,Kumasi,Kumasi,GH,6.71,-1.59,2.6,0,0,0,5097,LOS,542,200,ACC
ADD,SPARSE,MLG,Abdul Rachman Saleh,Malang,ID,-7.93,112.71,0.9,1,0,0,5016,CGK,697,62,SUB
ADD,MID,HTY,Hatay,Hatay,TR,36.36,36.28,1.6,0,0,0,4664,CAI,830,113,ADA
ADD,SPARSE,BNI,Benin,Benin City,NG,6.32,5.6,1.7,0,0,0,4525,LOS,254,209,PHC
ADD,SPARSE,MJM,Mbuji-Mayi,Mbuji-Mayi,CD,-6.12,23.57,2.5,0,0,0,4423,FIH,920,709,BJM
ADD,SPARSE,KJH,Huangping,Kaili,CN,26.97,107.99,1.3,0,0,0,4350,HKG,791,119,ZYI
ADD,MID,ROS,Islas Malvinas,Rosario,AR,-32.9,-60.78,1.3,0,0,0,4231,EZE,298,298,EZE
ADD,MID,TAM,Gen. Francisco J. Mina,Tampico,MX,22.29,-97.87,0.9,0,0,0,4228,MEX,341,304,QRO
ADD,MID,MAR,La Chinita Intl,Maracaibo,VE,10.56,-71.73,2.3,0,0,0,4111,BOG,704,280,SMR
ADD,SPARSE,KQH,Kishangarh,Ajmer,IN,26.59,74.81,0.6,0,0,0,4105,DEL,315,103,JAI
ADD,SPARSE,MGQ,Aden Adde Intl,Mogadishu,SO,2.01,45.3,2.6,0,0,0,3922,DXB,2800,821,MYD
ADD,SPARSE,KAD,Kaduna Intl,Kaduna,NG,10.7,7.32,1.6,0,0,0,3886,LOS,635,188,ABV
ADD,SPARSE,FBM,Lubumbashi Intl,Lubumbashi,CD,-11.59,27.53,2.6,0,0,0,3826,FIH,1553,428,LUN
ADD,SPARSE,AAP,APT Pranoto,Samarinda,ID,-0.37,117.25,0.85,0,0,0,3721,CGK,1338,108,BPN
ADD,SPARSE,JGA,Jamnagar,Jamnagar,IN,22.46,70.01,0.7,0,0,0,3623,DEL,983,81,RAJ
ADD,SPARSE,FEZ,Fes-Saiss,Fes,MA,33.93,-4.98,1.1,1,0,0,3558,LHR,1984,164,RBA
ADD,SPARSE,KGA,Kananga,Kananga,CD,-5.9,22.47,1.5,0,0,0,3549,FIH,796,796,FIH
ADD,SPARSE,CBN,Kertajati,Cirebon,ID,-6.76,108.54,0.4,0,0,0,3544,CGK,219,107,BDO
ADD,MID,VLN,Arturo Michelena,Valencia,VE,10.15,-67.93,1.8,0,0,0,3422,BOG,915,114,CCS
ADD,SPARSE,SHL,Shillong,Shillong,IN,25.7,91.98,0.5,1,0,0,3338,DAC,261,60,GAU
ADD,DENSE,AKJ,Asahikawa,Asahikawa,JP,43.67,142.45,0.33,1,0,0,3281,NRT,897,118,CTS
ADD,SPARSE,MIR,Monastir Habib Bourguiba,Monastir,TN,35.76,10.75,0.9,1,0,0,3235,LHR,1961,45,NBE
ADD,SPARSE,IXG,Belagavi,Belgaum,IN,15.86,74.62,0.6,0,0,0,3233,BOM,404,74,HBX
ADD,SPARSE,IXA,Agartala,Agartala,IN,23.89,91.24,0.5,0,0,0,3229,DAC,86,86,DAC
ADD,SPARSE,KDH,Kandahar Intl,Kandahar,AF,31.51,65.85,0.6,0,0,0,3222,DEL,1131,174,UET
ADD,SPARSE,LXR,Luxor Intl,Luxor,EG,25.67,32.71,0.5,1,0,0,3152,CAI,510,200,HRG
ADD,MID,MDQ,Astor Piazzolla,Mar del Plata,AR,-37.93,-57.57,0.6,1,0,0,3098,EZE,356,356,EZE
ADD,SPARSE,QOW,Sam Mbakwe,Owerri,NG,5.43,7.21,0.9,0,0,0,3088,LOS,449,55,PHC
ADD,MID,SJP,Prof. Eribelto Manoel Reino,Sao Jose do Rio Preto,BR,-20.82,-49.4,0.5,0,0,0,3082,GRU,419,173,RAO
ADD,SPARSE,PNY,Pondicherry,Puducherry,IN,11.97,79.81,0.65,1,0,0,3077,DEL,1866,120,MAA
ADD,SPARSE,BEN,Benina Intl,Benghazi,LY,32.1,20.27,0.8,0,0,0,3074,CAI,1082,523,CHQ
ADD,SPARSE,AZD,Shahid Sadooghi,Yazd,IR,31.9,54.28,0.6,0,0,0,3046,DXB,747,246,IFN
ADD,MID,OGU,Ordu-Giresun,Ordu,TR,40.97,38.08,0.7,0,0,0,2870,IST,783,130,SZF
ADD,SPARSE,FKI,Kisangani Bangoka,Kisangani,CD,0.49,25.34,1.2,0,0,0,2821,FIH,1226,600,KGL
ADD,MID,TUC,Teniente Benjamin Matienzo,Tucuman,AR,-26.84,-65.1,0.9,0,0,0,2781,EZE,1086,224,SLA
ADD,SPARSE,BOY,Bobo Dioulasso,Bobo-Dioulasso,BF,11.16,-4.33,1,0,0,0,2779,LOS,983,334,OUA
ADD,MID,CXJ,Hugo Cantergiani,Caxias do Sul,BR,-29.2,-51.19,0.51,0,0,0,2775,GRU,795,88,POA
ADD,MID,BRM,Jacinto Lara,Barquisimeto,VE,10.04,-69.36,1.1,0,0,0,2769,BOG,795,243,CUR
ADD,SPARSE,BWX,Banyuwangi,Banyuwangi,ID,-8.31,114.34,0.3,1,0,0,2745,CGK,881,104,DPS
ADD,MID,MQP,Kruger Mpumalanga,Mbombela,ZA,-25.38,31.1,0.7,1,0,0,2725,JNB,298,125,SHO
ADD,MID,PLZ,Chief Dawid Stuurman,Gqeberha,ZA,-33.98,25.61,1.2,0,0,0,2694,JNB,909,535,MSU
ADD,SPARSE,NOV,Albano Machado,Huambo,AO,-12.81,15.76,0.9,0,0,0,2642,FIH,937,519,LAD
ADD,SPARSE,BCD,Bacolod-Silay,Bacolod,PH,10.78,123.01,0.6,0,0,0,2584,MNL,468,57,ILO
ADD,MID,TPQ,Amado Nervo,Tepic,MX,21.42,-104.84,0.4,0,0,0,2565,MEX,640,93,PVR
ADD,SPARSE,AAE,Rabah Bitat,Annaba,DZ,36.82,7.81,0.6,0,0,0,2519,LHR,1755,122,CZL
ADD,MID,PTG,Polokwane Intl,Polokwane,ZA,-23.85,29.46,0.7,0,0,0,2494,JNB,282,282,JNB
ADD,MID,MOC,Mario Ribeiro,Montes Claros,BR,-16.71,-43.82,0.41,0,0,0,2487,GRU,797,325,CNF
ADD,MID,VVC,La Vanguardia,Villavicencio,CO,4.17,-73.61,0.55,0,0,0,2459,BOG,84,84,BOG
ADD,SPARSE,TML,Tamale,Tamale,GH,9.56,-0.86,0.6,0,0,0,2430,LOS,567,318,OUA
ADD,MID,IBE,Perales,Ibague,CO,4.42,-75.13,0.53,0,0,0,2389,BOG,113,71,AXM
ADD,MID,UTH,Udon Thani Intl,Udon Thani,TH,17.38,102.79,0.4,0,0,0,2379,BKK,465,72,VTE
ADD,SPARSE,AGA,Al Massira,Agadir,MA,30.32,-9.41,0.6,1,0,0,2374,LHR,2465,194,RAK
ADD,SPARSE,BAG,Loakan,Baguio,PH,16.38,120.62,0.35,1,0,0,2361,HKG,964,132,CRK
ADD,SPARSE,ASW,Aswan Intl,Aswan,EG,23.96,32.82,0.3,1,0,0,2306,CAI,698,371,HRG
ADD,MID,ELS,East London,East London,ZA,-33.04,27.83,0.8,0,0,0,2289,JNB,769,399,MSU
ADD,SPARSE,PZU,Port Sudan New Intl,Port Sudan,SD,19.43,37.23,0.5,0,0,0,2281,CAI,1325,319,JED
ADD,MID,CAC,Coronel Adalberto Mendes,Cascavel,BR,-25,-53.5,0.33,0,0,0,2273,GRU,734,128,IGR
ADD,MID,CFB,Cabo Frio Intl,Cabo Frio,BR,-22.92,-42.07,0.23,1,0,0,2271,GRU,453,112,SDU
ADD,MID,IPN,Usiminas,Ipatinga,BR,-19.47,-42.49,0.3,0,0,0,2254,GRU,603,156,CNF
ADD,SPARSE,OUD,Angads,Oujda,MA,34.79,-1.92,0.5,0,0,0,2246,LHR,1858,150,ORN
ADD,MID,BLA,Gen. Jose Antonio Anzoategui,Barcelona,VE,10.11,-64.69,0.9,0,0,0,2238,BOG,1204,257,CCS
ADD,MID,BFN,Bram Fischer Intl,Bloemfontein,ZA,-29.09,26.3,0.6,0,0,0,2235,JNB,381,128,MSU
ADD,SPARSE,BUQ,Joshua Mqabuko Nkomo,Bulawayo,ZW,-20.02,28.62,0.7,0,0,0,2198,JNB,681,349,HRE
ADD,SPARSE,DMB,Taraz,Taraz,KZ,42.85,71.3,0.36,0,0,0,2180,DEL,1672,159,CIT
ADD,MID,PZO,Manuel Carlos Piar,Puerto Ordaz,VE,8.29,-62.76,0.9,0,0,0,2171,BOG,1320,300,POS
ADD,MID,LMM,Valle del Fuerte,Los Mochis,MX,25.69,-109.08,0.4,0,0,0,2169,MEX,1240,192,CUL
ADD,SPARSE,MJU,Tampa Padang,Mamuju,ID,-2.58,119.03,0.3,0,0,0,2162,CGK,1427,102,TTR
ADD,MID,CSY,Cheboksary,Cheboksary,RU,56.09,47.35,0.49,0,0,0,2161,SVO,617,132,KZN
ADD,SPARSE,BUG,Benguela,Benguela,AO,-12.61,13.4,0.6,0,0,0,2154,FIH,941,417,LAD
ADD,MID,PSS,Libertador San Martin,Posadas,AR,-27.39,-55.97,0.35,0,0,0,2140,GRU,1050,236,IGR
ADD,MID,CNQ,Camba Punta,Corrientes,AR,-27.45,-58.76,0.4,0,0,0,2136,GRU,1312,275,ASU
ADD,SPARSE,FEG,Fergana,Fergana,UZ,40.36,71.74,0.3,0,0,0,2125,DEL,1400,71,NMA
ADD,MID,SOH,Sohar,Sohar,OM,24.39,56.63,0.2,0,0,0,2121,DXB,160,104,AAN
ADD,MID,RES,Resistencia Intl,Resistencia,AR,-27.45,-59.06,0.4,0,0,0,2120,GRU,1340,290,ASU
ADD,MID,KVX,Pobedilovo,Kirov,RU,58.5,49.35,0.5,0,0,0,2085,SVO,770,307,IJK
ADD,SPARSE,DGH,Deoghar,Deoghar,IN,24.4,86.71,0.2,1,0,0,2082,DEL,1062,182,GAY
ADD,MID,CEN,Ciudad Obregon,Ciudad Obregon,MX,27.39,-109.83,0.4,0,0,0,2078,MEX,1408,225,HMO
ADD,MID,STW,Shpakovskoye,Stavropol,RU,45.11,42.11,0.45,0,0,0,2071,IST,1164,125,MRV
ADD,MID,VDC,Glauber Rocha,Vitoria da Conquista,BR,-14.86,-40.86,0.34,0,0,0,2070,GRU,1120,197,IOS
ADD,SPARSE,GOU,Garoua Intl,Garoua,CM,9.34,13.37,0.6,0,0,0,2058,LOS,1148,281,MIU
ADD,MID,MTR,Los Garzones,Monteria,CO,8.82,-75.83,0.49,0,0,0,2023,BOG,494,184,CTG
ADD,SPARSE,GOM,Goma Intl,Goma,CD,-1.67,29.24,0.7,0,0,0,1981,FIH,1562,105,KGL
ADD,SPARSE,MQX,Alula Aba Nega,Mekelle,ET,13.47,39.53,0.5,0,0,0,1976,DXB,2111,213,ASM
ADD,SPARSE,BLZ,Chileka Intl,Blantyre,MW,-15.68,34.97,0.8,0,0,0,1953,JNB,1355,246,LLW
ADD,SPARSE,SCU,Antonio Maceo,Santiago de Cuba,CU,19.97,-75.84,0.5,0,0,0,1948,JFK,2307,247,KIN
ADD,MID,VDO,Van Don Intl,Ha Long,VN,21.12,107.41,0.2,1,0,0,1934,HKG,684,79,HPH
ADD,MID,VUP,Alfonso Lopez Pumarejo,Valledupar,CO,10.44,-73.25,0.49,0,0,0,1931,BOG,646,131,SMR
ADD,MID,LSC,La Florida,La Serena,CL,-29.92,-71.2,0.4,1,0,0,1922,EZE,1307,388,SCL
ADD,SPARSE,DIR,Aba Tenna Dejazmach,Dire Dawa,ET,9.62,41.85,0.5,0,0,0,1919,DXB,2249,246,HGA
ADD,SPARSE,MRA,Misrata Intl,Misrata,LY,32.33,15.06,0.4,0,0,0,1919,CAI,1572,178,MJI
ADD,MID,NVA,Benito Salas,Neiva,CO,2.95,-75.29,0.36,0,0,0,1890,BOG,232,138,CLO
ADD,SPARSE,GDQ,Gondar,Gondar,ET,12.52,37.43,0.4,1,0,0,1889,CAI,2052,347,ASM
ADD,SPARSE,GHA,Noumerat,Ghardaia,DZ,32.38,3.79,0.4,0,0,0,1884,LHR,2151,482,ALG
ADD,MID,BHI,Comandante Espora,Bahia Blanca,AR,-38.72,-62.17,0.3,0,0,0,1880,EZE,541,519,NQN
ADD,SPARSE,TRK,Juwata,Tarakan,ID,3.33,117.57,0.24,0,0,0,1852,CGK,1604,126,TWU
ADD,MID,CPV,Joao Suassuna,Campina Grande,BR,-7.27,-35.9,0.42,0,0,0,1811,GRU,2122,106,JPA
ADD,DENSE,NTL,Newcastle,Newcastle,AU,-32.79,151.83,0.5,0,0,0,1781,SYD,141,141,SYD
ADD,SPARSE,ARK,Arusha,Arusha,TZ,-3.37,36.63,0.6,1,0,0,1768,NBO,230,49,JRO
ADD,SPARSE,GNS,Binaka,Gunungsitoli,ID,1.17,97.7,0.13,1,0,0,1716,SIN,700,188,DTB
ADD,SPARSE,BEW,Beira,Beira,MZ,-19.8,34.91,0.5,0,0,0,1705,JNB,980,452,HRE
ADD,MID,PSO,Antonio Narino,Pasto,CO,1.4,-77.29,0.35,0,0,0,1704,BOG,506,208,UIO
ADD,MID,PPN,Guillermo Leon Valencia,Popayan,CO,2.45,-76.61,0.32,0,0,0,1701,BOG,370,124,CLO
ADD,SPARSE,AKY,Sittwe,Sittwe,MM,20.13,92.87,0.18,0,0,0,1695,DAC,485,175,CXB
ADD,SPARSE,APL,Nampula,Nampula,MZ,-15.11,39.28,0.7,0,0,0,1689,JNB,1678,587,HAH
ADD,SPARSE,BJR,Bahir Dar,Bahir Dar,ET,11.61,37.32,0.4,0,0,0,1685,CAI,2146,334,ADD
ADD,SPARSE,KOS,Sihanoukville Intl,Sihanoukville,KH,10.58,103.64,0.15,1,0,0,1680,SIN,1026,53,PQC
ADD,SPARSE,HOG,Frank Pais,Holguin,CU,20.79,-76.32,0.35,0,0,0,1659,JFK,2220,304,MBJ
ADD,SPARSE,MVR,Salak,Maroua,CM,10.45,14.26,0.4,0,0,0,1625,LOS,1277,202,MIU
ADD,MID,OGZ,Beslan,Vladikavkaz,RU,43.21,44.61,0.3,0,0,0,1623,IST,1322,167,MRV
ADD,MID,JUJ,Gobernador Horacio Guzman,Jujuy,AR,-24.39,-65.1,0.3,0,0,0,1609,GRU,1895,65,SLA
ADD,SPARSE,NLA,Simon Mwansa Kapwepwe,Ndola,ZM,-12.99,28.66,0.5,0,0,0,1606,FIH,1738,261,LUN
ADD,MID,PMV,Del Caribe,Porlamar,VE,10.91,-63.97,0.4,1,0,0,1592,BOG,1316,267,GND
ADD,MID,GRV,Severny,Grozny,RU,43.39,45.7,0.3,0,0,0,1587,IST,1412,171,MCX
ADD,MID,SRE,Juana Azurduy,Sucre,BO,-19.01,-65.29,0.3,0,0,0,1568,GRU,2010,200,CBB
ADD,SPARSE,BMU,Sultan M. Salahuddin,Bima,ID,-8.54,118.69,0.15,0,0,0,1557,CGK,1353,114,TMC
ADD,SPARSE,BEJ,Kalimarau,Berau,ID,2.16,117.43,0.13,1,0,0,1532,CGK,1510,252,TWU
ADD,SPARSE,MBI,Songwe,Mbeya,TZ,-9.01,33.27,0.5,0,0,0,1502,FIH,2034,534,LLW
ADD,MID,CJA,Mayor Armando Revoredo,Cajamarca,PE,-7.14,-78.49,0.28,0,0,0,1484,LIM,563,125,TRU
ADD,MID,NAL,Nalchik,Nalchik,RU,43.51,43.64,0.24,0,0,0,1480,IST,1247,91,MRV
ADD,MID,IMP,Prefeito Renato Moreira,Imperatriz,BR,-5.53,-47.46,0.26,0,0,0,1465,GRU,1993,187,MAB
ADD,MID,CTM,Chetumal Intl,Chetumal,MX,18.5,-88.33,0.17,0,0,0,1454,MEX,1134,107,BZE
ADD,MID,MEC,Eloy Alfaro,Manta,EC,-0.95,-80.68,0.26,1,0,0,1411,BOG,960,161,GYE
ADD,MID,KBV,Krabi Intl,Krabi,TH,8.1,98.99,0.1,1,0,0,1408,SIN,932,74,HKT
ADD,MID,TCQ,Coronel Carlos Ciriani,Tacna,PE,-18.05,-70.27,0.3,0,0,0,1403,GRU,2543,236,AQP
ADD,SPARSE,ELD,Eldoret Intl,Eldoret,KE,0.4,35.24,0.4,0,0,0,1355,DXB,3508,79,KIS
ADD,SPARSE,AYJ,Maharishi Valmiki,Ayodhya,IN,26.72,82.15,0.06,1,0,0,1327,DEL,538,125,LKO
ADD,MID,SCW,Syktyvkar,Syktyvkar,RU,61.65,50.84,0.23,0,0,0,1327,SVO,995,507,PEE
ADD,SPARSE,DOD,Dodoma,Dodoma,TZ,-6.17,35.75,0.4,0,0,0,1313,DAR,389,338,JRO
ADD,MID,MJT,Mytilene,Lesvos,GR,39.05,26.6,0.09,1,0,0,1311,IST,306,97,ADB
ADD,MID,ARI,Chacalluta,Arica,CL,-18.35,-70.34,0.25,0,0,0,1282,GRU,2540,243,IQQ
ADD,SPARSE,HJR,Khajuraho,Khajuraho,IN,24.81,79.92,0.05,1,0,0,1225,DEL,502,136,REW
ADD,SPARSE,UEL,Quelimane,Quelimane,MZ,-17.86,36.87,0.3,0,0,0,1219,JNB,1279,560,LLW
ADD,MID,CRD,Gen. E. Mosconi,Comodoro Rivadavia,AR,-45.78,-67.47,0.2,0,0,0,1199,EZE,1433,595,BRC
ADD,SPARSE,LVI,Harry Mwanga Nkumbula,Livingstone,ZM,-17.82,25.82,0.2,1,0,0,1192,JNB,957,347,MUB
ADD,MID,OPS,Presidente Joao Figueiredo,Sinop,BR,-11.88,-55.59,0.14,0,0,0,1175,GRU,1606,423,CGB
ADD,MID,GRJ,George,George,ZA,-34.01,22.38,0.2,1,0,0,1165,JNB,1041,349,CPT
ADD,SPARSE,TZL,Tuzla Intl,Tuzla,BA,44.46,18.72,0.12,0,0,0,1163,LHR,1619,78,SJJ
ADD,MID,ZAL,Pichoy,Valdivia,CL,-39.65,-73.09,0.18,0,0,0,1148,EZE,1394,89,ZCO
ADD,SPARSE,EUN,Hassan I,Laayoune,MA,27.15,-13.22,0.2,0,0,0,1145,LHR,2909,158,FUE
ADD,SPARSE,DGT,Sibulan,Dumaguete,PH,9.33,123.3,0.13,0,0,0,1145,MNL,627,71,TAG
ADD,SPARSE,ENE,H. Hasan Aroeboesman,Ende,ID,-8.85,121.66,0.09,0,0,0,1114,CGK,1681,68,MNK
ADD,SPARSE,POG,Port-Gentil,Port-Gentil,GA,-0.71,8.75,0.15,0,0,0,1106,FIH,848,149,LBV
ADD,SPARSE,LAE,Nadzab,Lae,PG,-6.57,146.73,0.2,0,0,0,1097,HND,4740,281,HGU
ADD,SPARSE,JIM,Aba Segud,Jimma,ET,7.66,36.82,0.2,0,0,0,1094,CAI,2560,263,ADD
ADD,SPARSE,DAV,Enrique Malek,David,PA,8.39,-82.43,0.15,0,0,0,1067,MEX,2173,264,SJO
ADD,MID,PXM,Puerto Escondido,Puerto Escondido,MX,15.87,-97.09,0.05,1,0,0,1057,MEX,449,89,HUX
ADD,MID,REL,Almirante Zar,Trelew,AR,-43.21,-65.27,0.1,1,0,0,1015,EZE,1099,532,NQN
ADD,SPARSE,FRS,Mundo Maya,Flores,GT,16.91,-89.87,0.06,1,0,0,981,MEX,1012,180,BZE
ADD,SPARSE,RMF,Marsa Alam Intl,Marsa Alam,EG,25.56,34.58,0.05,1,0,0,971,CAI,595,196,HRG
ADD,SPARSE,TMM,Toamasina,Toamasina,MG,-18.11,49.39,0.3,0,0,0,969,DEL,5983,216,TNR
ADD,SPARSE,POL,Pemba,Pemba,MZ,-12.99,40.52,0.2,1,0,0,933,JNB,1944,340,HAH
ADD,SPARSE,SPN,Saipan Intl,Saipan,MP,15.12,145.73,0.05,1,0,0,905,HND,2348,208,GUM
ADD,SPARSE,MJN,Amborovy,Mahajanga,MG,-15.67,46.35,0.25,0,0,0,897,JNB,2208,368,TNR
ADD,SPARSE,ESU,Mogador,Essaouira,MA,31.4,-9.68,0.08,1,0,0,886,LHR,2356,157,RAK
ADD,SPARSE,OHD,Ohrid St Paul,Ohrid,MK,41.18,20.74,0.05,1,0,0,872,IST,669,89,TIA
ADD,SPARSE,TMR,Aguenar,Tamanrasset,DZ,22.81,5.45,0.1,1,0,0,840,LHR,3227,1093,NIM
ADD,SPARSE,VIL,Dakhla,Dakhla,MA,23.72,-15.93,0.1,1,0,0,821,LHR,3358,471,LPA
ADD,SPARSE,WMX,Wamena,Wamena,ID,-4.1,138.95,0.1,0,0,0,814,HND,4410,233,TIM
ADD,SPARSE,AXU,Axum,Axum,ET,14.15,38.77,0.07,1,0,0,812,CAI,1929,128,ASM
ADD,MID,CZS,Cruzeiro do Sul,Cruzeiro do Sul,BR,-7.6,-72.77,0.09,0,0,0,811,LIM,684,415,TPP
ADD,MID,PEM,Padre Aldamiz,Puerto Maldonado,PE,-12.62,-69.23,0.08,1,0,0,798,LIM,859,311,CUZ
ADD,SPARSE,INH,Inhambane,Inhambane,MZ,-23.88,35.41,0.08,1,0,0,796,JNB,764,365,MPM
ADD,SPARSE,RAB,Tokua,Rabaul,PG,-4.34,152.38,0.1,0,0,0,789,HND,4626,804,POM
ADD,SPARSE,FPO,Grand Bahama Intl,Freeport,BS,26.56,-78.7,0.05,1,0,0,786,JFK,1630,140,PBI
ADD,MID,HMA,Khanty-Mansiysk,Khanty-Mansiysk,RU,61.03,69.09,0.1,0,0,0,778,DEL,3659,234,SGC
ADD,SPARSE,WVB,Walvis Bay,Walvis Bay,NA,-22.98,14.65,0.1,1,0,0,747,JNB,1418,295,WDH
ADD,SPARSE,ENI,El Nido,El Nido,PH,11.2,119.42,0.04,1,0,0,747,MNL,407,126,USU
ADD,MID,RGL,Piloto Civil N. Fernandez,Rio Gallegos,AR,-51.61,-69.31,0.1,0,0,0,733,EZE,2056,187,PUQ
ADD,MID,BBA,Balmaceda,Balmaceda,CL,-45.92,-71.69,0.06,1,0,0,683,EZE,1659,486,FTE
ADD,SPARSE,MPH,Godofredo P. Ramos,Caticlan,PH,11.92,121.95,0.03,1,0,0,669,MNL,305,54,KLO
ADD,SPARSE,VRA,Juan Gualberto Gomez,Varadero,CU,23.03,-81.44,0.04,1,0,0,647,MEX,1869,99,HAV
ADD,DENSE,HLZ,Hamilton,Hamilton,NZ,-37.87,175.33,0.18,0,0,0,646,HND,8947,107,AKL
ADD,SPARSE,DIE,Arrachart,Antsiranana,MG,-12.35,49.29,0.1,0,0,0,603,DXB,4232,661,HAH
ADD,SPARSE,VFA,Victoria Falls,Victoria Falls,ZW,-18.1,25.84,0.05,1,0,0,601,JNB,926,328,MUB
ADD,MID,LET,Alfredo Vasquez Cobo,Leticia,CO,-4.19,-69.94,0.05,1,0,0,597,BOG,1094,149,TCD
ADD,MID,TBT,Tabatinga,Tabatinga,BR,-4.25,-69.94,0.06,0,0,0,594,BOG,1100,155,TCD
ADD,SPARSE,NOS,Fascene,Nosy Be,MG,-13.31,48.31,0.08,1,0,0,582,DXB,4355,582,HAH
ADD,SPARSE,MAG,Madang,Madang,PG,-5.21,145.79,0.05,0,0,0,562,HND,4576,179,HGU
ADD,SPARSE,FTU,Tolagnaro,Fort Dauphin,MG,-25.04,46.96,0.07,1,0,0,560,JNB,1880,696,TNR
ADD,DENSE,DUD,Dunedin,Dunedin,NZ,-45.93,170.2,0.13,0,0,0,551,CGK,7491,152,ZQN
ADD,MID,UYU,Joya Andina,Uyuni,BO,-20.45,-66.85,0.03,1,0,0,531,GRU,2126,311,CJC
ADD,DENSE,BME,Broome Intl,Broome,AU,-17.95,122.23,0.02,1,0,0,520,CGK,2141,465,PHE
ADD,SPARSE,LLI,Lalibela,Lalibela,ET,11.98,38.98,0.03,1,0,0,515,DXB,2266,334,ADD
ADD,MID,GPS,Seymour,Galapagos,EC,-0.45,-90.27,0.03,1,0,0,499,MEX,2411,1171,GYE
ADD,DENSE,ASP,Alice Springs,Alice Springs,AU,-23.81,133.9,0.03,1,0,0,491,CGK,3512,1307,DRW
ADD,SPARSE,IAO,Sayak,Siargao,PH,9.86,126.01,0.02,1,0,0,488,HND,3178,59,SUG
ADD,SPARSE,GAN,Gan Intl,Gan,MV,-0.69,73.16,0.02,1,0,0,408,DEL,3279,544,MLE
ADD,DENSE,NPE,Hawke's Bay,Napier,NZ,-39.47,176.87,0.07,0,0,0,395,HND,9168,132,GIS
ADD,SPARSE,MFU,Mfuwe,Mfuwe,ZM,-13.26,31.94,0.02,1,0,0,329,JNB,1482,207,LLW
ADD,SPARSE,BVC,Aristides Pereira Intl,Boa Vista,CV,16.14,-22.89,0.02,1,0,0,310,LHR,4403,67,SID
ADD,SPARSE,BOB,Bora Bora,Bora Bora,PF,-16.44,-151.75,0.01,1,0,0,163,NRT,9191,259,PPT
ADD,MID,FEN,Fernando de Noronha,Fernando de Noronha,BR,-3.85,-32.42,0.003,1,0,0,151,GRU,2649,391,NAT
WEAK,DENSE,AYQ,Ayers Rock Connellan,Uluru,AU,-25.19,130.98,0.001,1,0,0,92,CGK,3345,1305,ADL
DUPLICATE,SPARSE,HBE,Borg El Arab,Alexandria,EG,30.92,29.7,5.2,0,0,0,10294,CAI,186,37,ALY
DUPLICATE,SPARSE,LHK,Wudangshan,Shiyan,CN,32.59,110.91,3.4,1,0,0,8519,PVG,1040,0,WDS
DUPLICATE,MID,TLC,Lic. Adolfo Lopez Mateos,Toluca,MX,19.34,-99.57,2.2,0,0,0,7297,MEX,54,54,MEX
DUPLICATE,SPARSE,NSI,Yaounde Nsimalen,Yaounde,CM,3.72,11.55,4,0,0,0,5584,LOS,965,0,YAO
DUPLICATE,DENSE,KMQ,Komatsu,Kanazawa,JP,36.39,136.41,0.7,0,0,0,5213,HND,317,75,TOY
DUPLICATE,DENSE,OKJ,Okayama Momotaro,Okayama,JP,34.76,133.86,0.7,0,0,0,4846,HND,545,63,TAK
DUPLICATE,MID,REX,Gen. Lucio Blanco,Reynosa,MX,26.01,-98.23,0.9,0,0,0,3739,MEX,736,19,MFE
DUPLICATE,DENSE,KPO,Pohang Gyeongju,Pohang,KR,35.99,129.42,0.5,0,0,0,3651,HND,936,45,USN
DUPLICATE,SPARSE,GOX,Manohar Intl,North Goa,IN,15.74,73.86,0.6,1,0,0,3572,BOM,387,40,GOI
DUPLICATE,SPARSE,QUO,Akwa Ibom Intl,Uyo,NG,5.16,8.09,1.2,0,0,0,3454,LOS,551,35,CBQ
DUPLICATE,DENSE,RKT,Ras Al Khaimah Intl,Ras Al Khaimah,AE,25.61,55.94,0.4,0,0,0,3096,DXB,71,52,SHJ
DUPLICATE,DENSE,TKS,Tokushima Awaodori,Tokushima,JP,34.13,134.61,0.26,0,0,0,2998,HND,497,55,TAK
DUPLICATE,SPARSE,AZN,Andizhan,Andijan,UZ,40.73,72.29,0.45,0,0,0,2589,DEL,1422,44,OSS
DUPLICATE,SPARSE,SFA,Sfax-Thyna,Sfax,TN,34.72,10.69,0.6,0,0,0,2350,LHR,2065,0,SFX
DUPLICATE,MID,ULV,Barataevka,Ulyanovsk,RU,54.27,48.23,0.6,0,0,0,2324,SVO,713,0,ULY
DUPLICATE,SPARSE,SAI,Siem Reap-Angkor Intl,Siem Reap,KH,13.32,104.21,0.2,1,0,0,1901,BKK,376,44,REP
DUPLICATE,SPARSE,GNJ,Ganja,Ganja,AZ,40.74,46.32,0.33,0,0,0,1786,IKA,727,0,KVD
DUPLICATE,DENSE,SCQ,Santiago de Compostela,Santiago,ES,42.9,-8.42,0.17,1,0,0,1722,LHR,1126,45,LCG
DUPLICATE,SPARSE,RXS,Roxas,Roxas,PH,11.6,122.75,0.17,0,0,0,1418,MNL,374,41,KLO
DUPLICATE,SPARSE,MOF,Frans Seda,Maumere,ID,-8.64,122.24,0.1,0,0,0,1158,CGK,1740,0,MNK
DUPLICATE,SPARSE,SBG,Maimun Saleh,Sabang,ID,5.87,95.34,0.04,1,0,0,854,SIN,1083,40,BTJ
DUPLICATE,SPARSE,TIV,Tivat,Tivat,ME,42.4,18.72,0.04,1,0,0,742,IST,839,41,DBV
EXISTS,SPARSE,KAN,Mallam Aminu Kano Intl,Kano,NG,12.05,8.52,4.1,0,0,0,0,,0,0,KAN
EXISTS,SPARSE,PHC,Port Harcourt Intl,Port Harcourt,NG,5.02,6.95,3,0,0,0,0,,0,0,PHC
EXISTS,SPARSE,ENU,Akanu Ibiam Intl,Enugu,NG,6.47,7.56,0.8,0,0,0,0,,0,0,ENU
EXISTS,SPARSE,ILR,Ilorin Intl,Ilorin,NG,8.44,4.49,1,0,0,0,0,,0,0,ILR
EXISTS,SPARSE,MIU,Maiduguri Intl,Maiduguri,NG,11.86,13.08,1.2,0,0,0,0,,0,0,MIU
EXISTS,SPARSE,CBQ,Margaret Ekpo Intl,Calabar,NG,4.98,8.35,0.6,0,0,0,0,,0,0,CBQ
EXISTS,SPARSE,SKO,Sadiq Abubakar III,Sokoto,NG,12.92,5.21,0.7,0,0,0,0,,0,0,SKO
EXISTS,SPARSE,JOS,Yakubu Gowon,Jos,NG,9.64,8.87,0.9,0,0,0,0,,0,0,JOS
EXISTS,SPARSE,JRO,Kilimanjaro Intl,Kilimanjaro,TZ,-3.43,37.07,1,1,0,0,0,,0,0,JRO
EXISTS,SPARSE,ZNZ,Abeid Amani Karume Intl,Zanzibar,TZ,-6.22,39.22,0.5,1,0,0,0,,0,0,ZNZ
EXISTS,SPARSE,MWZ,Mwanza,Mwanza,TZ,-2.44,32.93,1.2,0,0,0,0,,0,0,MWZ
EXISTS,SPARSE,MBA,Moi Intl,Mombasa,KE,-4.03,39.59,1.2,1,0,0,0,,0,0,MBA
EXISTS,SPARSE,KIS,Kisumu Intl,Kisumu,KE,-0.09,34.73,0.6,0,0,0,0,,0,0,KIS
EXISTS,SPARSE,MYD,Malindi,Malindi,KE,-3.23,40.1,0.12,1,0,0,0,,0,0,MYD
EXISTS,SPARSE,ORN,Es Senia,Oran,DZ,35.62,-0.62,1,0,0,0,0,,0,0,ORN
EXISTS,SPARSE,CZL,Mohamed Boudiaf,Constantine,DZ,36.28,6.62,0.95,0,0,0,0,,0,0,CZL
EXISTS,SPARSE,TNG,Ibn Battouta,Tangier,MA,35.73,-5.92,1.1,0,0,0,0,,0,0,TNG
EXISTS,SPARSE,RBA,Rabat-Sale,Rabat,MA,34.05,-6.75,1.9,0,0,0,0,,0,0,RBA
EXISTS,SPARSE,DJE,Djerba-Zarzis,Djerba,TN,33.87,10.78,0.16,1,0,0,0,,0,0,DJE
EXISTS,SPARSE,MUB,Maun,Maun,BW,-19.97,23.43,0.06,1,0,0,0,,0,0,MUB
EXISTS,SPARSE,PNR,Pointe-Noire,Pointe-Noire,CG,-4.82,11.89,1.1,0,0,0,0,,0,0,PNR
EXISTS,SPARSE,HGA,Hargeisa Intl,Hargeisa,SO,9.52,44.09,1.2,0,0,0,0,,0,0,HGA
EXISTS,SPARSE,ASM,Asmara Intl,Asmara,ER,15.29,38.91,0.9,0,0,0,0,,0,0,ASM
EXISTS,SPARSE,HAH,Prince Said Ibrahim,Moroni,KM,-11.53,43.27,0.15,0,0,0,0,,0,0,HAH
EXISTS,SPARSE,SID,Amilcar Cabral Intl,Sal,CV,16.74,-22.95,0.03,1,0,0,0,,0,0,SID
EXISTS,SPARSE,WUX,Sunan Shuofang Intl,Wuxi,CN,31.49,120.43,7.4,0,0,0,0,,0,0,WUX
EXISTS,SPARSE,YTY,Yangzhou Taizhou Intl,Yangzhou,CN,32.56,119.72,4.6,0,0,0,0,,0,0,YTY
EXISTS,SPARSE,HYN,Huangyan,Taizhou,CN,28.56,121.43,6.6,0,0,0,0,,0,0,HYN
EXISTS,SPARSE,WNZ,Longwan Intl,Wenzhou,CN,27.91,120.85,9.6,0,0,0,0,,0,0,WNZ
EXISTS,SPARSE,JUZ,Quzhou,Quzhou,CN,28.97,118.9,2.3,0,0,0,0,,0,0,JUZ
EXISTS,SPARSE,YIW,Yiwu,Yiwu,CN,29.34,120.03,1.9,0,0,0,0,,0,0,YIW
EXISTS,SPARSE,LYG,Baitabu,Lianyungang,CN,34.57,119.25,4.6,0,0,0,0,,0,0,LYG
EXISTS,SPARSE,HIA,Lianshui,Huai'an,CN,33.79,119.13,4.6,0,0,0,0,,0,0,HIA
EXISTS,SPARSE,XUZ,Guanyin Intl,Xuzhou,CN,34.06,117.56,9,0,0,0,0,,0,0,XUZ
EXISTS,SPARSE,YNZ,Nanyang Intl,Yancheng,CN,33.43,120.2,6.7,0,0,0,0,,0,0,YNZ
EXISTS,SPARSE,BFU,Bengbu,Bengbu,CN,32.85,117.32,3.3,0,0,0,0,,0,0,BFU
EXISTS,SPARSE,MXZ,Meixian,Meizhou,CN,24.35,116.13,4.3,0,0,0,0,,0,0,MXZ
EXISTS,SPARSE,WYS,Wuyishan,Wuyishan,CN,27.7,118,2.3,1,0,0,0,,0,0,WYS
EXISTS,SPARSE,LZH,Bailian,Liuzhou,CN,24.21,109.39,4.2,0,0,0,0,,0,0,LZH
EXISTS,SPARSE,BHY,Fucheng,Beihai,CN,21.54,109.29,1.9,1,0,0,0,,0,0,BHY
EXISTS,SPARSE,AEB,Youjiang,Baise,CN,23.72,106.96,3.6,0,0,0,0,,0,0,AEB
EXISTS,SPARSE,HLD,Dongshan,Hulunbuir,CN,49.2,119.83,2.5,1,0,0,0,,0,0,HLD
EXISTS,SPARSE,BAV,Donghe,Baotou,CN,40.56,109.99,2.7,0,0,0,0,,0,0,BAV
EXISTS,SPARSE,DSN,Ordos Ejin Horo,Ordos,CN,39.49,109.86,2.2,0,0,0,0,,0,0,DSN
EXISTS,SPARSE,NDG,Sanjiazi,Qiqihar,CN,47.24,123.92,5.3,0,0,0,0,,0,0,NDG
EXISTS,SPARSE,MDG,Hailang,Mudanjiang,CN,44.52,129.57,2.5,0,0,0,0,,0,0,MDG
EXISTS,SPARSE,JMU,Dongjiao,Jiamusi,CN,46.84,130.46,2.3,0,0,0,0,,0,0,JMU
EXISTS,SPARSE,YNJ,Chaoyangchuan,Yanji,CN,42.88,129.45,2.1,0,0,0,0,,0,0,YNJ
EXISTS,SPARSE,JNZ,Xiaolingzi,Jinzhou,CN,41.1,121.06,3,0,0,0,0,,0,0,JNZ
EXISTS,SPARSE,TGO,Tongliao,Tongliao,CN,43.55,122.2,2.8,0,0,0,0,,0,0,TGO
EXISTS,SPARSE,CIF,Yulong,Chifeng,CN,42.23,118.91,4.3,0,0,0,0,,0,0,CIF
EXISTS,SPARSE,DLU,Dali,Dali,CN,25.65,100.32,0.7,1,0,0,0,,0,0,DLU
EXISTS,SPARSE,LJG,Sanyi,Lijiang,CN,26.68,100.24,1.3,1,0,0,0,,0,0,LJG
EXISTS,SPARSE,JHG,Gasa,Xishuangbanna,CN,21.97,100.76,1.3,1,0,0,0,,0,0,JHG
EXISTS,SPARSE,DIG,Shangri-La,Diqing,CN,27.79,99.68,0.4,1,0,0,0,,0,0,DIG
EXISTS,SPARSE,ZAT,Zhaotong,Zhaotong,CN,27.33,103.75,5.2,0,0,0,0,,0,0,ZAT
EXISTS,SPARSE,LUM,Mangshi,Dehong,CN,24.4,98.53,1.3,0,0,0,0,,0,0,LUM
EXISTS,SPARSE,BSD,Yunrui,Baoshan,CN,25.05,99.17,2.4,0,0,0,0,,0,0,BSD
EXISTS,SPARSE,SYM,Simao,Pu'er,CN,22.79,100.96,2.5,1,0,0,0,,0,0,SYM
EXISTS,SPARSE,MIG,Nanjiao,Mianyang,CN,31.43,104.74,4.9,0,0,0,0,,0,0,MIG
EXISTS,SPARSE,NAO,Gaoping,Nanchong,CN,30.97,106.16,5.6,0,0,0,0,,0,0,NAO
EXISTS,SPARSE,LZO,Yunlong,Luzhou,CN,28.85,105.4,4.3,0,0,0,0,,0,0,LZO
EXISTS,SPARSE,YBP,Wuliangye,Yibin,CN,28.8,104.53,4.6,0,0,0,0,,0,0,YBP
EXISTS,SPARSE,DAX,Heshi,Dazhou,CN,31.13,107.43,5.4,0,0,0,0,,0,0,DAX
EXISTS,SPARSE,XIC,Qingshan,Xichang,CN,27.99,102.18,1.3,0,0,0,0,,0,0,XIC
EXISTS,SPARSE,JZH,Jiuzhaigou Huanglong,Jiuzhaigou,CN,32.85,103.68,0.2,1,0,0,0,,0,0,JZH
EXISTS,SPARSE,WXN,Wuqiao,Wanzhou,CN,30.84,108.41,1.6,0,0,0,0,,0,0,WXN
EXISTS,SPARSE,ACX,Wanfenglin,Xingyi,CN,25.09,104.96,0.9,0,0,0,0,,0,0,ACX
EXISTS,SPARSE,AVA,Huangguoshu,Anshun,CN,26.26,105.87,2.5,1,0,0,0,,0,0,AVA
EXISTS,SPARSE,TEN,Fenghuangshan,Tongren,CN,27.88,109.31,3.1,0,0,0,0,,0,0,TEN
EXISTS,SPARSE,BFJ,Feixiong,Bijie,CN,27.27,105.47,6,0,0,0,0,,0,0,BFJ
EXISTS,SPARSE,LPF,Yuezhao,Liupanshui,CN,26.61,104.97,2.8,0,0,0,0,,0,0,LPF
EXISTS,SPARSE,HZG,Chenggu,Hanzhong,CN,33.13,107.01,3.2,0,0,0,0,,0,0,HZG
EXISTS,SPARSE,ENY,Nanniwan,Yan'an,CN,36.64,109.55,2,0,0,0,0,,0,0,ENY
EXISTS,SPARSE,UYN,Yuyang,Yulin,CN,38.27,109.59,3.6,0,0,0,0,,0,0,UYN
EXISTS,SPARSE,DNH,Mogao,Dunhuang,CN,40.16,94.81,0.2,1,0,0,0,,0,0,DNH
EXISTS,SPARSE,JGN,Jiayuguan,Jiayuguan,CN,39.86,98.34,0.3,1,0,0,0,,0,0,JGN
EXISTS,SPARSE,ZHY,Shapotou,Zhongwei,CN,37.57,105.15,1.1,1,0,0,0,,0,0,ZHY
EXISTS,SPARSE,KRL,Korla,Korla,CN,41.7,86.13,0.6,0,0,0,0,,0,0,KRL
EXISTS,SPARSE,AKU,Aksu,Aksu,CN,41.26,80.29,0.6,0,0,0,0,,0,0,AKU
EXISTS,SPARSE,KHG,Kashgar,Kashgar,CN,39.54,76.02,0.7,0,0,0,0,,0,0,KHG
EXISTS,SPARSE,HTN,Hotan,Hotan,CN,37.04,79.86,0.4,0,0,0,0,,0,0,HTN
EXISTS,SPARSE,YIN,Yining,Yining,CN,43.96,81.33,0.6,0,0,0,0,,0,0,YIN
EXISTS,SPARSE,KRY,Karamay,Karamay,CN,45.47,84.95,0.4,0,0,0,0,,0,0,KRY
EXISTS,SPARSE,HMI,Hami,Hami,CN,42.84,93.67,0.6,0,0,0,0,,0,0,HMI
EXISTS,SPARSE,KJI,Kanas,Burqin,CN,48.22,86.99,0.1,1,0,0,0,,0,0,KJI
EXISTS,SPARSE,XFN,Liuji,Xiangyang,CN,32.15,112.29,5.5,0,0,0,0,,0,0,XFN
EXISTS,SPARSE,ENH,Xujiaping,Enshi,CN,30.32,109.49,3.4,1,0,0,0,,0,0,ENH
EXISTS,SPARSE,YIH,Sanxia,Yichang,CN,30.56,111.48,4,0,0,0,0,,0,0,YIH
EXISTS,SPARSE,HJJ,Zhijiang,Huaihua,CN,27.44,109.7,4.9,0,0,0,0,,0,0,HJJ
EXISTS,SPARSE,CGD,Taohuayuan,Changde,CN,28.92,111.64,5.3,0,0,0,0,,0,0,CGD
EXISTS,SPARSE,JGS,Jinggangshan,Ji'an,CN,26.86,114.74,1,1,0,0,0,,0,0,JGS
EXISTS,SPARSE,JDZ,Luojia,Jingdezhen,CN,29.34,117.18,1.6,1,0,0,0,,0,0,JDZ
EXISTS,SPARSE,YNT,Penglai,Yantai,CN,37.4,121.37,7.1,0,0,0,0,,0,0,YNT
EXISTS,SPARSE,WEF,Nanyuan,Weifang,CN,36.65,119.12,9.4,0,0,0,0,,0,0,WEF
EXISTS,SPARSE,JNG,Da'an,Jining,CN,35.29,116.35,8.4,0,0,0,0,,0,0,JNG
EXISTS,SPARSE,LYI,Qiyang,Linyi,CN,35.05,118.41,11,0,0,0,0,,0,0,LYI
EXISTS,SPARSE,RIZ,Shanzihe,Rizhao,CN,35.4,119.32,2.9,1,0,0,0,,0,0,RIZ
EXISTS,SPARSE,LYA,Beijiao,Luoyang,CN,34.74,112.39,7,0,0,0,0,,0,0,LYA
EXISTS,SPARSE,NNY,Jiangying,Nanyang,CN,32.98,112.62,9.7,0,0,0,0,,0,0,NNY
EXISTS,SPARSE,DAT,Yungang,Datong,CN,40.06,113.48,3.1,0,0,0,0,,0,0,DAT
EXISTS,SPARSE,YCU,Zhangxiao,Yuncheng,CN,35.12,111.03,4.8,0,0,0,0,,0,0,YCU
EXISTS,DENSE,ISG,New Ishigaki,Ishigaki,JP,24.4,124.25,0.05,1,0,0,0,,0,0,ISG
EXISTS,DENSE,MMY,Miyako,Miyako,JP,24.78,125.3,0.05,1,0,0,0,,0,0,MMY
EXISTS,DENSE,KMI,Miyazaki,Miyazaki,JP,31.88,131.45,0.4,0,0,0,0,,0,0,KMI
EXISTS,DENSE,KOJ,Kagoshima,Kagoshima,JP,31.8,130.72,0.6,0,0,0,0,,0,0,KOJ
EXISTS,DENSE,KMJ,Kumamoto Aso,Kumamoto,JP,32.84,130.86,0.7,0,0,0,0,,0,0,KMJ
EXISTS,DENSE,NGS,Nagasaki,Nagasaki,JP,32.92,129.91,0.4,0,0,0,0,,0,0,NGS
EXISTS,DENSE,OIT,Oita,Oita,JP,33.48,131.74,0.47,0,0,0,0,,0,0,OIT
EXISTS,DENSE,TAK,Takamatsu,Takamatsu,JP,34.21,134.02,0.42,0,0,0,0,,0,0,TAK
EXISTS,DENSE,MYJ,Matsuyama,Matsuyama,JP,33.83,132.7,0.5,0,0,0,0,,0,0,MYJ
EXISTS,DENSE,KCZ,Kochi Ryoma,Kochi,JP,33.55,133.67,0.32,0,0,0,0,,0,0,KCZ
EXISTS,DENSE,KKJ,Kitakyushu,Kitakyushu,JP,33.84,131.03,0.95,0,0,0,0,,0,0,KKJ
EXISTS,DENSE,AOJ,Aomori,Aomori,JP,40.73,140.69,0.27,0,0,0,0,,0,0,AOJ
EXISTS,DENSE,AXT,Akita,Akita,JP,39.62,140.22,0.31,0,0,0,0,,0,0,AXT
EXISTS,DENSE,HKD,Hakodate,Hakodate,JP,41.77,140.82,0.25,1,0,0,0,,0,0,HKD
EXISTS,DENSE,TOY,Toyama,Toyama,JP,36.65,137.19,0.42,0,0,0,0,,0,0,TOY
EXISTS,DENSE,FSZ,Mt. Fuji Shizuoka,Shizuoka,JP,34.8,138.19,0.7,1,0,0,0,,0,0,FSZ
EXISTS,DENSE,TAE,Daegu Intl,Daegu,KR,35.89,128.66,2.4,0,0,0,0,,0,0,TAE
EXISTS,DENSE,KWJ,Gwangju,Gwangju,KR,35.13,126.81,1.5,0,0,0,0,,0,0,KWJ
EXISTS,DENSE,USN,Ulsan,Ulsan,KR,35.59,129.35,1.1,0,0,0,0,,0,0,USN
EXISTS,DENSE,CJJ,Cheongju Intl,Cheongju,KR,36.72,127.5,0.85,0,0,0,0,,0,0,CJJ
EXISTS,MID,JTR,Santorini,Santorini,GR,36.4,25.48,0.015,1,0,0,0,,0,0,JTR
EXISTS,MID,JMK,Mykonos,Mykonos,GR,37.43,25.35,0.01,1,0,0,0,,0,0,JMK
EXISTS,MID,RHO,Rhodes Diagoras,Rhodes,GR,36.41,28.09,0.12,1,0,0,0,,0,0,RHO
EXISTS,MID,HER,Heraklion Kazantzakis,Heraklion,GR,35.34,25.18,0.18,1,0,0,0,,0,0,HER
EXISTS,MID,CHQ,Chania,Chania,GR,35.53,24.15,0.1,1,0,0,0,,0,0,CHQ
EXISTS,MID,KGS,Kos,Kos,GR,36.79,27.09,0.03,1,0,0,0,,0,0,KGS
EXISTS,MID,CFU,Corfu,Corfu,GR,39.6,19.91,0.1,1,0,0,0,,0,0,CFU
EXISTS,MID,ZTH,Zakynthos,Zakynthos,GR,37.75,20.88,0.04,1,0,0,0,,0,0,ZTH
EXISTS,MID,KVA,Alexander the Great,Kavala,GR,40.91,24.62,0.07,0,0,0,0,,0,0,KVA
EXISTS,DENSE,IBZ,Ibiza,Ibiza,ES,38.87,1.37,0.15,1,0,0,0,,0,0,IBZ
EXISTS,DENSE,MAH,Menorca,Menorca,ES,39.86,4.22,0.09,1,0,0,0,,0,0,MAH
EXISTS,DENSE,ACE,Lanzarote,Lanzarote,ES,28.95,-13.61,0.15,1,0,0,0,,0,0,ACE
EXISTS,DENSE,FUE,Fuerteventura,Fuerteventura,ES,28.45,-13.86,0.12,1,0,0,0,,0,0,FUE
EXISTS,DENSE,OVD,Asturias,Oviedo,ES,43.56,-6.03,0.8,0,0,0,0,,0,0,OVD
EXISTS,DENSE,VGO,Vigo,Vigo,ES,42.23,-8.63,0.3,0,0,0,0,,0,0,VGO
EXISTS,DENSE,XRY,Jerez,Jerez,ES,36.74,-6.06,0.2,1,0,0,0,,0,0,XRY
EXISTS,DENSE,GRX,F.G.L. Granada-Jaen,Granada,ES,37.19,-3.78,0.5,1,0,0,0,,0,0,GRX
EXISTS,DENSE,CAG,Cagliari Elmas,Cagliari,IT,39.25,9.06,0.43,1,0,0,0,,0,0,CAG
EXISTS,DENSE,OLB,Olbia Costa Smeralda,Olbia,IT,40.9,9.52,0.06,1,0,0,0,,0,0,OLB
EXISTS,DENSE,BDS,Brindisi,Brindisi,IT,40.66,17.95,0.09,1,0,0,0,,0,0,BDS
EXISTS,DENSE,SUF,Lamezia Terme,Lamezia Terme,IT,38.91,16.24,0.07,0,0,0,0,,0,0,SUF
EXISTS,DENSE,PSR,Abruzzo,Pescara,IT,42.43,14.18,0.3,0,0,0,0,,0,0,PSR
EXISTS,DENSE,AOI,Marche,Ancona,IT,43.62,13.36,0.3,0,0,0,0,,0,0,AOI
EXISTS,MID,FNC,Madeira Cristiano Ronaldo,Funchal,PT,32.69,-16.77,0.15,1,0,0,0,,0,0,FNC
EXISTS,MID,PDL,Joao Paulo II,Ponta Delgada,PT,37.74,-25.7,0.07,1,0,0,0,,0,0,PDL
EXISTS,MID,ZAD,Zadar,Zadar,HR,44.11,15.35,0.07,1,0,0,0,,0,0,ZAD
EXISTS,MID,PUY,Pula,Pula,HR,44.89,13.92,0.06,1,0,0,0,,0,0,PUY
EXISTS,MID,INI,Nis Constantine the Great,Nis,RS,43.34,21.85,0.25,0,0,0,0,,0,0,INI
EXISTS,SPARSE,TGD,Podgorica,Podgorica,ME,42.36,19.25,0.18,0,0,0,0,,0,0,TGD
EXISTS,MID,VAR,Varna,Varna,BG,43.23,27.83,0.34,1,0,0,0,,0,0,VAR
EXISTS,MID,BOJ,Burgas,Burgas,BG,42.57,27.52,0.2,1,0,0,0,,0,0,BOJ
EXISTS,MID,CLJ,Avram Iancu,Cluj-Napoca,RO,46.79,23.69,0.4,0,0,0,0,,0,0,CLJ
EXISTS,MID,IAS,Iasi,Iasi,RO,47.18,27.62,0.4,0,0,0,0,,0,0,IAS
EXISTS,MID,TSR,Traian Vuia,Timisoara,RO,45.81,21.34,0.32,0,0,0,0,,0,0,TSR
EXISTS,MID,SBZ,Sibiu,Sibiu,RO,45.78,24.09,0.17,0,0,0,0,,0,0,SBZ
EXISTS,MID,LWO,Danylo Halytskyi,Lviv,UA,49.81,23.96,0.72,0,0,0,0,,0,0,LWO
EXISTS,MID,ODS,Odesa,Odesa,UA,46.43,30.68,1,0,0,0,0,,0,0,ODS
EXISTS,MID,HRK,Kharkiv,Kharkiv,UA,49.92,36.29,1.4,0,0,0,0,,0,0,HRK
EXISTS,MID,DNK,Dnipro,Dnipro,UA,48.36,35.1,1,0,0,0,0,,0,0,DNK
EXISTS,MID,GDN,Lech Walesa,Gdansk,PL,54.38,18.47,0.75,0,0,0,0,,0,0,GDN
EXISTS,MID,WRO,Copernicus,Wroclaw,PL,51.1,16.89,0.64,0,0,0,0,,0,0,WRO
EXISTS,MID,POZ,Lawica,Poznan,PL,52.42,16.83,0.55,0,0,0,0,,0,0,POZ
EXISTS,MID,KTW,Katowice,Katowice,PL,50.47,19.08,2.2,0,0,0,0,,0,0,KTW
EXISTS,DENSE,TOS,Tromso,Tromso,NO,69.68,18.92,0.08,1,0,0,0,,0,0,TOS
EXISTS,DENSE,BOO,Bodo,Bodo,NO,67.27,14.36,0.05,0,0,0,0,,0,0,BOO
EXISTS,DENSE,AES,Alesund Vigra,Alesund,NO,62.56,6.12,0.07,0,0,0,0,,0,0,AES
EXISTS,DENSE,KRS,Kristiansand Kjevik,Kristiansand,NO,58.2,8.09,0.11,0,0,0,0,,0,0,KRS
EXISTS,DENSE,RVN,Rovaniemi,Rovaniemi,FI,66.56,25.83,0.06,1,0,0,0,,0,0,RVN
EXISTS,DENSE,OUL,Oulu,Oulu,FI,64.93,25.37,0.2,0,0,0,0,,0,0,OUL
EXISTS,SPARSE,AEY,Akureyri,Akureyri,IS,65.66,18.07,0.02,1,0,0,0,,0,0,AEY
EXISTS,SPARSE,IXJ,Jammu,Jammu,IN,32.69,74.84,0.65,0,0,0,0,,0,0,IXJ
EXISTS,SPARSE,SXR,Sheikh ul-Alam Intl,Srinagar,IN,33.99,74.77,1.5,1,0,0,0,,0,0,SXR
EXISTS,SPARSE,DED,Jolly Grant,Dehradun,IN,30.19,78.18,0.8,1,0,0,0,,0,0,DED
EXISTS,SPARSE,GAY,Gaya Intl,Gaya,IN,24.74,84.95,0.5,1,0,0,0,,0,0,GAY
EXISTS,SPARSE,IXW,Sonari,Jamshedpur,IN,22.81,86.17,1.6,0,0,0,0,,0,0,IXW
EXISTS,SPARSE,IXR,Birsa Munda,Ranchi,IN,23.31,85.32,1.5,0,0,0,0,,0,0,IXR
EXISTS,SPARSE,DBR,Darbhanga,Darbhanga,IN,26.19,85.92,0.4,0,0,0,0,,0,0,DBR
EXISTS,SPARSE,GWL,Rajmata Scindia,Gwalior,IN,26.29,78.22,1.2,0,0,0,0,,0,0,GWL
EXISTS,SPARSE,JLR,Jabalpur,Jabalpur,IN,23.18,80.05,1.4,0,0,0,0,,0,0,JLR
EXISTS,SPARSE,BHO,Raja Bhoj,Bhopal,IN,23.28,77.34,2.4,0,0,0,0,,0,0,BHO
EXISTS,SPARSE,RPR,Swami Vivekananda,Raipur,IN,21.18,81.74,1.5,0,0,0,0,,0,0,RPR
EXISTS,SPARSE,BDQ,Vadodara,Vadodara,IN,22.34,73.21,2.2,0,0,0,0,,0,0,BDQ
EXISTS,SPARSE,STV,Surat,Surat,IN,21.11,72.74,6.9,0,0,0,0,,0,0,STV
EXISTS,SPARSE,RAJ,Rajkot,Rajkot,IN,22.3,70.78,1.6,0,0,0,0,,0,0,RAJ
EXISTS,SPARSE,BHJ,Bhuj,Bhuj,IN,23.29,69.67,0.2,0,0,0,0,,0,0,BHJ
EXISTS,SPARSE,JDH,Jodhpur,Jodhpur,IN,26.25,73.05,1.3,1,0,0,0,,0,0,JDH
EXISTS,SPARSE,BKB,Nal,Bikaner,IN,28.07,73.21,0.7,0,0,0,0,,0,0,BKB
EXISTS,SPARSE,JSA,Jaisalmer,Jaisalmer,IN,26.89,70.86,0.08,1,0,0,0,,0,0,JSA
EXISTS,SPARSE,IXU,Aurangabad,Aurangabad,IN,19.86,75.4,1.4,1,0,0,0,,0,0,IXU
EXISTS,SPARSE,NDC,Nanded,Nanded,IN,19.18,77.32,0.6,0,0,0,0,,0,0,NDC
EXISTS,SPARSE,KLH,Kolhapur,Kolhapur,IN,16.66,74.29,0.7,0,0,0,0,,0,0,KLH
EXISTS,SPARSE,HBX,Hubli,Hubli,IN,15.36,75.08,1,0,0,0,0,,0,0,HBX
EXISTS,SPARSE,IXM,Madurai,Madurai,IN,9.83,78.09,1.6,1,0,0,0,,0,0,IXM
EXISTS,SPARSE,TRZ,Tiruchirappalli Intl,Tiruchirappalli,IN,10.76,78.71,1,0,0,0,0,,0,0,TRZ
EXISTS,SPARSE,CJB,Coimbatore Intl,Coimbatore,IN,11.03,77.04,2.5,0,0,0,0,,0,0,CJB
EXISTS,SPARSE,SXV,Salem,Salem,IN,11.78,78.07,0.9,0,0,0,0,,0,0,SXV
EXISTS,SPARSE,TCR,Tuticorin,Thoothukudi,IN,8.72,78.02,0.5,0,0,0,0,,0,0,TCR
EXISTS,SPARSE,RJA,Rajahmundry,Rajahmundry,IN,17.11,81.82,0.6,0,0,0,0,,0,0,RJA
EXISTS,SPARSE,VGA,Vijayawada,Vijayawada,IN,16.53,80.8,1.6,0,0,0,0,,0,0,VGA
EXISTS,SPARSE,TIR,Tirupati,Tirupati,IN,13.63,79.54,0.5,1,0,0,0,,0,0,TIR
EXISTS,SPARSE,IXZ,Veer Savarkar,Port Blair,IN,11.64,92.73,0.14,1,0,0,0,,0,0,IXZ
EXISTS,SPARSE,IMF,Imphal,Imphal,IN,24.76,93.9,0.5,0,0,0,0,,0,0,IMF
EXISTS,SPARSE,DMU,Dimapur,Dimapur,IN,25.88,93.77,0.4,0,0,0,0,,0,0,DMU
EXISTS,SPARSE,DIB,Dibrugarh,Dibrugarh,IN,27.48,95.02,0.15,0,0,0,0,,0,0,DIB
EXISTS,SPARSE,JRH,Jorhat,Jorhat,IN,26.73,94.18,0.15,0,0,0,0,,0,0,JRH
EXISTS,SPARSE,AJL,Lengpui,Aizawl,IN,23.84,92.62,0.3,0,0,0,0,,0,0,AJL
EXISTS,SPARSE,IXS,Silchar,Silchar,IN,24.91,92.98,0.2,0,0,0,0,,0,0,IXS
EXISTS,SPARSE,IXD,Prayagraj,Prayagraj,IN,25.44,81.73,1.2,0,0,0,0,,0,0,IXD
EXISTS,SPARSE,AGR,Agra,Agra,IN,27.16,77.96,1.7,1,0,0,0,,0,0,AGR
EXISTS,SPARSE,KUU,Bhuntar,Kullu,IN,31.88,77.15,0.05,1,0,0,0,,0,0,KUU
EXISTS,SPARSE,DHM,Gaggal,Dharamshala,IN,32.16,76.26,0.05,1,0,0,0,,0,0,DHM
EXISTS,SPARSE,IXB,Bagdogra,Siliguri,IN,26.68,88.33,0.7,1,0,0,0,,0,0,IXB
EXISTS,SPARSE,MYQ,Mysore,Mysore,IN,12.23,76.65,1,1,0,0,0,,0,0,MYQ
EXISTS,SPARSE,SAG,Shirdi,Shirdi,IN,19.69,74.38,0.1,1,0,0,0,,0,0,SAG
EXISTS,SPARSE,LBJ,Komodo,Labuan Bajo,ID,-8.49,119.89,0.06,1,0,0,0,,0,0,LBJ
EXISTS,SPARSE,BUW,Betoambari,Bau-Bau,ID,-5.49,122.57,0.15,0,0,0,0,,0,0,BUW
EXISTS,SPARSE,KDI,Haluoleo,Kendari,ID,-4.08,122.42,0.4,0,0,0,0,,0,0,KDI
EXISTS,SPARSE,PLW,Mutiara SIS Al-Jufri,Palu,ID,-0.92,119.91,0.4,0,0,0,0,,0,0,PLW
EXISTS,SPARSE,LUW,Syukuran Aminuddin,Luwuk,ID,-1.04,122.77,0.1,0,0,0,0,,0,0,LUW
EXISTS,SPARSE,GTO,Djalaluddin,Gorontalo,ID,0.64,122.85,0.4,0,0,0,0,,0,0,GTO
EXISTS,SPARSE,TTE,Sultan Babullah,Ternate,ID,0.83,127.38,0.2,1,0,0,0,,0,0,TTE
EXISTS,SPARSE,MKW,Rendani,Manokwari,ID,-0.89,134.05,0.16,0,0,0,0,,0,0,MKW
EXISTS,SPARSE,SOQ,Domine Eduard Osok,Sorong,ID,-0.93,131.12,0.25,1,0,0,0,,0,0,SOQ
EXISTS,SPARSE,MKQ,Mopah,Merauke,ID,-8.52,140.42,0.2,0,0,0,0,,0,0,MKQ
EXISTS,SPARSE,NBX,Douw Aturure,Nabire,ID,-3.37,135.5,0.1,0,0,0,0,,0,0,NBX
EXISTS,SPARSE,TMC,Tambolaka,Sumba,ID,-9.41,119.24,0.1,1,0,0,0,,0,0,TMC
EXISTS,SPARSE,WGP,Umbu Mehang Kunda,Waingapu,ID,-9.67,120.3,0.06,0,0,0,0,,0,0,WGP
EXISTS,SPARSE,PSU,Iskandar,Pangkalan Bun,ID,-2.71,111.67,0.2,0,0,0,0,,0,0,PSU
EXISTS,SPARSE,TJQ,H.A.S. Hanandjoeddin,Belitung,ID,-2.75,107.75,0.3,1,0,0,0,,0,0,TJQ
EXISTS,SPARSE,PGK,Depati Amir,Pangkal Pinang,ID,-2.16,106.14,0.4,1,0,0,0,,0,0,PGK
EXISTS,SPARSE,DJB,Sultan Thaha,Jambi,ID,-1.64,103.64,0.6,0,0,0,0,,0,0,DJB
EXISTS,SPARSE,BKS,Fatmawati Soekarno,Bengkulu,ID,-3.86,102.34,0.4,0,0,0,0,,0,0,BKS
EXISTS,SPARSE,DTB,Sisingamangaraja,Silangit,ID,2.26,98.99,0.1,1,0,0,0,,0,0,DTB
EXISTS,SPARSE,BTJ,Sultan Iskandar Muda,Banda Aceh,ID,5.52,95.42,0.3,0,0,0,0,,0,0,BTJ
EXISTS,MID,MGF,Silvio Name Junior,Maringa,BR,-23.48,-52.01,0.43,0,0,0,0,,0,0,MGF
EXISTS,MID,JDO,Orlando Bezerra,Juazeiro do Norte,BR,-7.22,-39.27,0.27,0,0,0,0,,0,0,JDO
EXISTS,MID,IOS,Jorge Amado,Ilheus,BR,-14.82,-39.03,0.18,1,0,0,0,,0,0,IOS
EXISTS,MID,PNZ,Senador Nilo Coelho,Petrolina,BR,-9.36,-40.57,0.36,0,0,0,0,,0,0,PNZ
EXISTS,MID,BPS,Porto Seguro,Porto Seguro,BR,-16.44,-39.08,0.15,1,0,0,0,,0,0,BPS
EXISTS,MID,STM,Santarem,Santarem,BR,-2.42,-54.79,0.3,0,0,0,0,,0,0,STM
EXISTS,MID,MAB,Joao Correa,Maraba,BR,-5.37,-49.14,0.28,0,0,0,0,,0,0,MAB
EXISTS,MID,MLM,Gen. Francisco Mujica,Morelia,MX,19.85,-101.03,1,0,0,0,0,,0,0,MLM
EXISTS,MID,ZCL,Gen. Leobardo Ruiz,Zacatecas,MX,22.9,-102.69,0.4,0,0,0,0,,0,0,ZCL
EXISTS,MID,DGO,Guadalupe Victoria,Durango,MX,24.12,-104.53,0.65,0,0,0,0,,0,0,DGO
EXISTS,MID,ZLO,Playa de Oro,Manzanillo,MX,19.14,-104.56,0.18,1,0,0,0,,0,0,ZLO
EXISTS,MID,TAP,Tapachula Intl,Tapachula,MX,14.79,-92.37,0.35,0,0,0,0,,0,0,TAP
EXISTS,MID,AXM,El Eden,Armenia,CO,4.45,-75.77,0.3,0,0,0,0,,0,0,AXM
EXISTS,MID,ADZ,Gustavo Rojas Pinilla,San Andres,CO,12.58,-81.71,0.06,1,0,0,0,,0,0,ADZ
EXISTS,MID,TRU,Capitan Carlos Martinez,Trujillo,PE,-8.08,-79.11,1,0,0,0,0,,0,0,TRU
EXISTS,MID,CIX,Capitan Quinones,Chiclayo,PE,-6.79,-79.83,0.6,0,0,0,0,,0,0,CIX
EXISTS,MID,TPP,Cadete FAP Guillermo,Tarapoto,PE,-6.51,-76.37,0.18,0,0,0,0,,0,0,TPP
EXISTS,MID,JUL,Inca Manco Capac,Juliaca,PE,-15.47,-70.16,0.27,0,0,0,0,,0,0,JUL
EXISTS,MID,NQN,Presidente Peron,Neuquen,AR,-38.95,-68.16,0.34,0,0,0,0,,0,0,NQN
EXISTS,MID,FTE,Comandante Tola,El Calafate,AR,-50.28,-72.05,0.02,1,0,0,0,,0,0,FTE
EXISTS,MID,ANF,Andres Sabella,Antofagasta,CL,-23.44,-70.45,0.4,0,0,0,0,,0,0,ANF
EXISTS,MID,CJC,El Loa,Calama,CL,-22.5,-68.9,0.18,0,0,0,0,,0,0,CJC
EXISTS,MID,IQQ,Diego Aracena,Iquique,CL,-20.54,-70.18,0.3,1,0,0,0,,0,0,IQQ
EXISTS,MID,CCP,Carriel Sur,Concepcion,CL,-36.77,-73.06,1,0,0,0,0,,0,0,CCP
EXISTS,MID,PMC,El Tepual,Puerto Montt,CL,-41.44,-73.09,0.25,1,0,0,0,,0,0,PMC
EXISTS,MID,VVI,Viru Viru Intl,Santa Cruz,BO,-17.64,-63.14,1.7,0,0,0,0,,0,0,VVI
EXISTS,MID,CBB,Jorge Wilstermann,Cochabamba,BO,-17.42,-66.18,0.9,0,0,0,0,,0,0,CBB
EXISTS,MID,CUE,Mariscal Lamar,Cuenca,EC,-2.89,-78.98,0.4,0,0,0,0,,0,0,CUE
EXISTS,SPARSE,SAP,Ramon Villeda Morales,San Pedro Sula,HN,15.45,-87.92,0.9,0,0,0,0,,0,0,SAP
EXISTS,SPARSE,RTB,Juan Manuel Galvez,Roatan,HN,16.32,-86.52,0.05,1,0,0,0,,0,0,RTB
EXISTS,SPARSE,LIR,Daniel Oduber Quiros,Liberia,CR,10.59,-85.54,0.06,1,0,0,0,,0,0,LIR
EXISTS,SPARSE,PUJ,Punta Cana Intl,Punta Cana,DO,18.57,-68.36,0.05,1,0,0,0,,0,0,PUJ
EXISTS,SPARSE,POP,Gregorio Luperon,Puerto Plata,DO,19.76,-70.57,0.15,1,0,0,0,,0,0,POP
EXISTS,SPARSE,STI,Cibao Intl,Santiago,DO,19.41,-70.6,0.7,0,0,0,0,,0,0,STI
EXISTS,SPARSE,MBJ,Sangster Intl,Montego Bay,JM,18.5,-77.91,0.11,1,0,0,0,,0,0,MBJ
EXISTS,SPARSE,SYZ,Shahid Dastghaib Intl,Shiraz,IR,29.54,52.59,1.9,0,0,0,0,,0,0,SYZ
EXISTS,SPARSE,IFN,Shahid Beheshti Intl,Isfahan,IR,32.75,51.86,2.2,0,0,0,0,,0,0,IFN
EXISTS,SPARSE,TBZ,Tabriz Intl,Tabriz,IR,38.13,46.24,1.7,0,0,0,0,,0,0,TBZ
EXISTS,SPARSE,AWZ,Ahvaz Intl,Ahvaz,IR,31.34,48.76,1.3,0,0,0,0,,0,0,AWZ
EXISTS,SPARSE,KER,Kerman,Kerman,IR,30.27,56.95,0.8,0,0,0,0,,0,0,KER
EXISTS,SPARSE,BND,Bandar Abbas Intl,Bandar Abbas,IR,27.22,56.38,0.7,0,0,0,0,,0,0,BND
EXISTS,SPARSE,KIH,Kish Intl,Kish Island,IR,26.53,53.98,0.04,1,0,0,0,,0,0,KIH
EXISTS,SPARSE,RAS,Rasht,Rasht,IR,37.32,49.61,0.7,0,0,0,0,,0,0,RAS
EXISTS,SPARSE,ZAH,Zahedan Intl,Zahedan,IR,29.48,60.91,0.7,0,0,0,0,,0,0,ZAH
EXISTS,SPARSE,OMH,Urmia,Urmia,IR,37.67,45.07,0.7,0,0,0,0,,0,0,OMH
EXISTS,SPARSE,BUZ,Bushehr,Bushehr,IR,28.94,50.83,0.3,0,0,0,0,,0,0,BUZ
EXISTS,SPARSE,KSH,Kermanshah,Kermanshah,IR,34.35,47.16,0.95,0,0,0,0,,0,0,KSH
EXISTS,SPARSE,BSR,Basra Intl,Basra,IQ,30.55,47.66,1.4,0,0,0,0,,0,0,BSR
EXISTS,SPARSE,EBL,Erbil Intl,Erbil,IQ,36.24,43.96,1,0,0,0,0,,0,0,EBL
EXISTS,SPARSE,ISU,Sulaymaniyah Intl,Sulaymaniyah,IQ,35.56,45.32,0.9,0,0,0,0,,0,0,ISU
EXISTS,SPARSE,NJF,Al Najaf Intl,Najaf,IQ,31.99,44.4,1,1,0,0,0,,0,0,NJF
EXISTS,MID,ELQ,Prince Naif bin Abdulaziz,Buraidah,SA,26.3,43.77,0.7,0,0,0,0,,0,0,ELQ
EXISTS,MID,HAS,Hail Intl,Hail,SA,27.44,41.69,0.4,0,0,0,0,,0,0,HAS
EXISTS,MID,GIZ,Jazan Intl,Jazan,SA,16.9,42.59,0.4,0,0,0,0,,0,0,GIZ
EXISTS,MID,TUU,Tabuk,Tabuk,SA,28.37,36.62,0.6,0,0,0,0,,0,0,TUU
EXISTS,MID,AHB,Abha Intl,Abha,SA,18.24,42.66,1.1,1,0,0,0,,0,0,AHB
EXISTS,MID,TIF,Taif Intl,Taif,SA,21.48,40.54,0.7,0,0,0,0,,0,0,TIF
EXISTS,MID,YNB,Yanbu,Yanbu,SA,24.14,38.06,0.3,0,0,0,0,,0,0,YNB
EXISTS,SPARSE,SAH,Sanaa Intl,Sanaa,YE,15.48,44.22,2.5,0,0,0,0,,0,0,SAH
EXISTS,SPARSE,ADE,Aden Intl,Aden,YE,12.83,45.03,0.9,0,0,0,0,,0,0,ADE
EXISTS,MID,SLL,Salalah,Salalah,OM,17.04,54.09,0.3,1,0,0,0,,0,0,SLL
EXISTS,SPARSE,AQJ,King Hussein Intl,Aqaba,JO,29.61,35.02,0.15,1,0,0,0,,0,0,AQJ
EXISTS,MID,ETM,Ramon,Eilat,IL,29.72,35.01,0.05,1,0,0,0,,0,0,ETM
EXISTS,MID,ADA,Adana Sakirpasa,Adana,TR,36.98,35.28,1.8,0,0,0,0,,0,0,ADA
EXISTS,MID,GZT,Oguzeli Intl,Gaziantep,TR,36.95,37.48,2,0,0,0,0,,0,0,GZT
EXISTS,MID,TZX,Trabzon,Trabzon,TR,40.99,39.79,0.8,1,0,0,0,,0,0,TZX
EXISTS,MID,KYA,Konya,Konya,TR,37.98,32.56,1.4,0,0,0,0,,0,0,KYA
EXISTS,MID,DIY,Diyarbakir,Diyarbakir,TR,37.89,40.2,1.1,0,0,0,0,,0,0,DIY
EXISTS,MID,VAN,Ferit Melen,Van,TR,38.47,43.33,0.5,0,0,0,0,,0,0,VAN
EXISTS,MID,ERZ,Erzurum,Erzurum,TR,39.95,41.17,0.4,1,0,0,0,,0,0,ERZ
EXISTS,MID,MLX,Malatya,Malatya,TR,38.43,38.09,0.8,0,0,0,0,,0,0,MLX
EXISTS,MID,ASR,Erkilet Intl,Kayseri,TR,38.77,35.49,1.4,0,0,0,0,,0,0,ASR
EXISTS,MID,SZF,Carsamba,Samsun,TR,41.25,36.57,0.7,0,0,0,0,,0,0,SZF
EXISTS,MID,DNZ,Cardak,Denizli,TR,37.79,29.7,0.6,1,0,0,0,,0,0,DNZ
EXISTS,MID,BJV,Milas-Bodrum,Bodrum,TR,37.25,27.66,0.18,1,0,0,0,,0,0,BJV
EXISTS,MID,DLM,Dalaman,Dalaman,TR,36.71,28.79,0.1,1,0,0,0,,0,0,DLM
EXISTS,MID,NAV,Nevsehir Kapadokya,Cappadocia,TR,38.77,34.53,0.3,1,0,0,0,,0,0,NAV
EXISTS,MID,GNY,Sanliurfa GAP,Sanliurfa,TR,37.45,38.9,2,0,0,0,0,,0,0,GNY
EXISTS,MID,KSY,Kars Harakani,Kars,TR,40.56,43.11,0.08,1,0,0,0,,0,0,KSY
EXISTS,DENSE,AAN,Al Ain Intl,Al Ain,AE,24.26,55.61,0.77,0,0,0,0,,0,0,AAN
EXISTS,DENSE,HBA,Hobart,Hobart,AU,-42.84,147.51,0.24,0,0,0,0,,0,0,HBA
EXISTS,DENSE,LST,Launceston,Launceston,AU,-41.55,147.21,0.09,0,0,0,0,,0,0,LST
EXISTS,DENSE,TSV,Townsville,Townsville,AU,-19.25,146.77,0.18,0,0,0,0,,0,0,TSV
EXISTS,DENSE,MCY,Sunshine Coast,Maroochydore,AU,-26.6,153.09,0.35,1,0,0,0,,0,0,MCY
EXISTS,DENSE,HTI,Hamilton Island,Whitsundays,AU,-20.36,148.95,0.001,1,0,0,0,,0,0,HTI
EXISTS,DENSE,ZQN,Queenstown,Queenstown,NZ,-45.02,168.74,0.05,1,0,0,0,,0,0,ZQN
EXISTS,SPARSE,SUV,Nausori,Suva,FJ,-18.04,178.56,0.18,0,0,0,0,,0,0,SUV
EXISTS,SPARSE,ROR,Roman Tmetuchl Intl,Koror,PW,7.37,134.54,0.01,1,0,0,0,,0,0,ROR
EXISTS,SPARSE,RAR,Rarotonga Intl,Rarotonga,CK,-21.2,-159.81,0.01,1,0,0,0,,0,0,RAR
EXISTS,SPARSE,TBU,Fua'amotu Intl,Nuku'alofa,TO,-21.24,-175.15,0.025,1,0,0,0,,0,0,TBU
EXISTS,SPARSE,HIR,Honiara Intl,Honiara,SB,-9.43,160.05,0.085,0,0,0,0,,0,0,HIR
EXISTS,MID,UFA,Ufa Intl,Ufa,RU,54.56,55.87,1.1,0,0,0,0,,0,0,UFA
EXISTS,MID,KRR,Pashkovsky,Krasnodar,RU,45.03,39.17,1,0,0,0,0,,0,0,KRR
EXISTS,MID,MRV,Mineralnye Vody,Mineralnye Vody,RU,44.22,43.08,0.5,1,0,0,0,,0,0,MRV
EXISTS,MID,VOG,Gumrak,Volgograd,RU,48.78,44.35,1,0,0,0,0,,0,0,VOG
EXISTS,MID,GOJ,Strigino,Nizhny Novgorod,RU,56.23,43.78,1.25,0,0,0,0,,0,0,GOJ
EXISTS,MID,KUF,Kurumoch,Samara,RU,53.5,50.16,1.16,0,0,0,0,,0,0,KUF
EXISTS,MID,REN,Orenburg Tsentralny,Orenburg,RU,51.8,55.46,0.55,0,0,0,0,,0,0,REN
EXISTS,MID,CEK,Chelyabinsk Balandino,Chelyabinsk,RU,55.31,61.5,1.2,0,0,0,0,,0,0,CEK
EXISTS,MID,PEE,Bolshoye Savino,Perm,RU,57.91,56.02,1,0,0,0,0,,0,0,PEE
EXISTS,MID,TJM,Roshchino,Tyumen,RU,57.19,65.32,0.8,0,0,0,0,,0,0,TJM
EXISTS,MID,OMS,Tsentralny,Omsk,RU,54.97,73.31,1.15,0,0,0,0,,0,0,OMS
EXISTS,MID,BAX,Barnaul,Barnaul,RU,53.36,83.54,0.6,0,0,0,0,,0,0,BAX
EXISTS,MID,TOF,Bogashevo,Tomsk,RU,56.38,85.21,0.57,0,0,0,0,,0,0,TOF
EXISTS,MID,KEJ,Kemerovo Intl,Kemerovo,RU,55.27,86.11,0.55,0,0,0,0,,0,0,KEJ
EXISTS,MID,NOZ,Spichenkovo,Novokuznetsk,RU,53.81,86.88,0.55,0,0,0,0,,0,0,NOZ
EXISTS,MID,ABA,Abakan,Abakan,RU,53.74,91.39,0.18,0,0,0,0,,0,0,ABA
EXISTS,MID,UUD,Baikal,Ulan-Ude,RU,51.81,107.44,0.43,1,0,0,0,,0,0,UUD
EXISTS,MID,HTA,Kadala,Chita,RU,52.03,113.31,0.35,0,0,0,0,,0,0,HTA
EXISTS,MID,YKS,Yakutsk,Yakutsk,RU,62.09,129.77,0.3,0,0,0,0,,0,0,YKS
EXISTS,MID,GDX,Sokol,Magadan,RU,59.91,150.72,0.09,0,0,0,0,,0,0,GDX
EXISTS,MID,PKC,Yelizovo,Petropavlovsk-Kamchatsky,RU,53.17,158.45,0.18,1,0,0,0,,0,0,PKC
EXISTS,MID,UUS,Khomutovo,Yuzhno-Sakhalinsk,RU,46.89,142.72,0.18,0,0,0,0,,0,0,UUS
EXISTS,MID,BQS,Ignatyevo,Blagoveshchensk,RU,50.43,127.41,0.22,0,0,0,0,,0,0,BQS
EXISTS,MID,ARH,Talagi,Arkhangelsk,RU,64.6,40.72,0.35,0,0,0,0,,0,0,ARH
EXISTS,MID,MMK,Murmansk,Murmansk,RU,68.78,32.75,0.3,0,0,0,0,,0,0,MMK
EXISTS,MID,KGD,Khrabrovo,Kaliningrad,RU,54.89,20.59,0.49,0,0,0,0,,0,0,KGD
EXISTS,MID,VOZ,Chertovitskoye,Voronezh,RU,51.81,39.23,1,0,0,0,0,,0,0,VOZ
EXISTS,MID,PEZ,Penza,Penza,RU,53.11,45.02,0.5,0,0,0,0,,0,0,PEZ
EXISTS,MID,NJC,Nizhnevartovsk,Nizhnevartovsk,RU,60.95,76.48,0.27,0,0,0,0,,0,0,NJC
EXISTS,MID,SGC,Surgut,Surgut,RU,61.34,73.4,0.38,0,0,0,0,,0,0,SGC
EXISTS,MID,NUX,Novy Urengoy,Novy Urengoy,RU,66.07,76.52,0.12,0,0,0,0,,0,0,NUX
EXISTS,MID,MCX,Uytash,Makhachkala,RU,42.82,47.65,0.6,0,0,0,0,,0,0,MCX
EXISTS,MID,ASF,Narimanovo,Astrakhan,RU,46.28,48.01,0.5,0,0,0,0,,0,0,ASF
EXISTS,MID,IJK,Izhevsk,Izhevsk,RU,56.83,53.46,0.65,0,0,0,0,,0,0,IJK
EXISTS,SPARSE,PPS,Puerto Princesa Intl,Puerto Princesa,PH,9.74,118.76,0.3,1,0,0,0,,0,0,PPS
EXISTS,SPARSE,TAG,Bohol-Panglao Intl,Tagbilaran,PH,9.56,123.78,0.1,1,0,0,0,,0,0,TAG
EXISTS,SPARSE,TAC,Daniel Z. Romualdez,Tacloban,PH,11.23,125.03,0.25,0,0,0,0,,0,0,TAC
EXISTS,SPARSE,CGY,Laguindingan,Cagayan de Oro,PH,8.61,124.46,0.7,0,0,0,0,,0,0,CGY
EXISTS,SPARSE,GES,General Santos Intl,General Santos,PH,6.06,125.1,0.7,0,0,0,0,,0,0,GES
EXISTS,SPARSE,ZAM,Zamboanga Intl,Zamboanga,PH,6.92,122.06,0.9,0,0,0,0,,0,0,ZAM
EXISTS,SPARSE,BXU,Bancasi,Butuan,PH,8.95,125.48,0.37,0,0,0,0,,0,0,BXU
EXISTS,SPARSE,LGP,Bicol Intl,Legazpi,PH,13.16,123.74,0.2,1,0,0,0,,0,0,LGP
EXISTS,SPARSE,TUG,Tuguegarao,Tuguegarao,PH,17.64,121.73,0.17,0,0,0,0,,0,0,TUG
EXISTS,SPARSE,LAO,Laoag Intl,Laoag,PH,18.18,120.53,0.11,1,0,0,0,,0,0,LAO
EXISTS,SPARSE,KLO,Kalibo Intl,Kalibo,PH,11.68,122.38,0.08,1,0,0,0,,0,0,KLO
EXISTS,SPARSE,USU,Francisco B. Reyes,Busuanga,PH,12.12,120.1,0.02,1,0,0,0,,0,0,USU
EXISTS,MID,USM,Samui,Koh Samui,TH,9.55,100.06,0.06,1,0,0,0,,0,0,USM
EXISTS,MID,CEI,Chiang Rai Intl,Chiang Rai,TH,19.95,99.88,0.2,1,0,0,0,,0,0,CEI
EXISTS,MID,HDY,Hat Yai Intl,Hat Yai,TH,6.93,100.39,0.35,0,0,0,0,,0,0,HDY
EXISTS,MID,KKC,Khon Kaen,Khon Kaen,TH,16.46,102.78,0.4,0,0,0,0,,0,0,KKC
EXISTS,MID,UBP,Ubon Ratchathani,Ubon Ratchathani,TH,15.25,104.87,0.3,0,0,0,0,,0,0,UBP
EXISTS,MID,URT,Surat Thani Intl,Surat Thani,TH,9.13,99.14,0.2,0,0,0,0,,0,0,URT
EXISTS,SPARSE,NYU,Nyaung U,Bagan,MM,21.18,94.93,0.05,1,0,0,0,,0,0,NYU
EXISTS,SPARSE,HEH,Heho,Inle,MM,20.75,96.79,0.05,1,0,0,0,,0,0,HEH
EXISTS,SPARSE,NYT,Naypyidaw Intl,Naypyidaw,MM,19.62,96.2,1,0,0,0,0,,0,0,NYT
EXISTS,MID,BTU,Bintulu,Bintulu,MY,3.12,113.02,0.2,0,0,0,0,,0,0,BTU
EXISTS,MID,KUA,Sultan Ahmad Shah,Kuantan,MY,3.78,103.21,0.6,0,0,0,0,,0,0,KUA
EXISTS,SPARSE,LPQ,Luang Prabang Intl,Luang Prabang,LA,19.9,102.16,0.08,1,0,0,0,,0,0,LPQ
EXISTS,SPARSE,PKZ,Pakse Intl,Pakse,LA,15.13,105.78,0.09,0,0,0,0,,0,0,PKZ
EXISTS,SPARSE,PEW,Bacha Khan Intl,Peshawar,PK,33.99,71.51,2.3,0,0,0,0,,0,0,PEW
EXISTS,SPARSE,UET,Quetta Intl,Quetta,PK,30.25,66.94,1.1,0,0,0,0,,0,0,UET
EXISTS,SPARSE,MUX,Multan Intl,Multan,PK,30.2,71.42,2,0,0,0,0,,0,0,MUX
EXISTS,SPARSE,LYP,Faisalabad Intl,Faisalabad,PK,31.36,72.99,3.6,0,0,0,0,,0,0,LYP
EXISTS,SPARSE,SKZ,Sukkur,Sukkur,PK,27.72,68.79,0.5,0,0,0,0,,0,0,SKZ
EXISTS,SPARSE,RYK,Shaikh Zayed Intl,Rahim Yar Khan,PK,28.38,70.28,0.4,0,0,0,0,,0,0,RYK
EXISTS,SPARSE,BHV,Bahawalpur,Bahawalpur,PK,29.35,71.72,0.8,0,0,0,0,,0,0,BHV
EXISTS,SPARSE,GIL,Gilgit,Gilgit,PK,35.92,74.33,0.2,1,0,0,0,,0,0,GIL
EXISTS,SPARSE,KDU,Skardu Intl,Skardu,PK,35.34,75.54,0.1,1,0,0,0,,0,0,KDU
EXISTS,SPARSE,ZYL,Osmani Intl,Sylhet,BD,24.96,91.87,0.5,0,0,0,0,,0,0,ZYL
EXISTS,SPARSE,CXB,Cox's Bazar,Cox's Bazar,BD,21.45,91.96,0.2,1,0,0,0,,0,0,CXB
EXISTS,SPARSE,JSR,Jessore,Jessore,BD,23.18,89.16,0.3,0,0,0,0,,0,0,JSR
EXISTS,SPARSE,RJH,Shah Makhdum,Rajshahi,BD,24.44,88.62,0.45,0,0,0,0,,0,0,RJH
EXISTS,SPARSE,SPD,Saidpur,Saidpur,BD,25.76,88.91,0.2,0,0,0,0,,0,0,SPD
EXISTS,SPARSE,PKR,Pokhara Intl,Pokhara,NP,28.2,83.98,0.4,1,0,0,0,,0,0,PKR
EXISTS,SPARSE,BWA,Gautam Buddha Intl,Bhairahawa,NP,27.51,83.42,0.1,1,0,0,0,,0,0,BWA
EXISTS,SPARSE,BIR,Biratnagar,Biratnagar,NP,26.48,87.26,0.24,0,0,0,0,,0,0,BIR
EXISTS,SPARSE,HRI,Mattala Rajapaksa Intl,Hambantota,LK,6.28,81.12,0.1,1,0,0,0,,0,0,HRI
EXISTS,SPARSE,JAF,Jaffna Intl,Jaffna,LK,9.79,80.07,0.3,0,0,0,0,,0,0,JAF
EXISTS,SPARSE,KBL,Hamid Karzai Intl,Kabul,AF,34.57,69.21,4.6,0,0,0,0,,0,0,KBL
EXISTS,SPARSE,HEA,Herat Intl,Herat,AF,34.21,62.23,0.6,0,0,0,0,,0,0,HEA
EXISTS,SPARSE,MZR,Mazar-i-Sharif Intl,Mazar-i-Sharif,AF,36.71,67.21,0.5,0,0,0,0,,0,0,MZR
EXISTS,SPARSE,CIT,Shymkent Intl,Shymkent,KZ,42.36,69.48,1.1,0,0,0,0,,0,0,CIT
EXISTS,SPARSE,GUW,Atyrau,Atyrau,KZ,47.12,51.82,0.3,0,0,0,0,,0,0,GUW
EXISTS,SPARSE,AKX,Aktobe,Aktobe,KZ,50.25,57.21,0.5,0,0,0,0,,0,0,AKX
EXISTS,SPARSE,SCO,Aktau,Aktau,KZ,43.86,51.09,0.2,0,0,0,0,,0,0,SCO
EXISTS,SPARSE,KGF,Sary-Arka,Karaganda,KZ,49.67,73.33,0.5,0,0,0,0,,0,0,KGF
EXISTS,SPARSE,PWQ,Pavlodar,Pavlodar,KZ,52.19,77.07,0.35,0,0,0,0,,0,0,PWQ
EXISTS,SPARSE,UKK,Oskemen,Ust-Kamenogorsk,KZ,50.04,82.49,0.35,0,0,0,0,,0,0,UKK
EXISTS,SPARSE,KZO,Kyzylorda,Kyzylorda,KZ,44.71,65.59,0.3,0,0,0,0,,0,0,KZO
EXISTS,SPARSE,URA,Uralsk,Uralsk,KZ,51.15,51.54,0.3,0,0,0,0,,0,0,URA
EXISTS,SPARSE,SKD,Samarkand Intl,Samarkand,UZ,39.7,66.98,0.55,1,0,0,0,,0,0,SKD
EXISTS,SPARSE,BHK,Bukhara Intl,Bukhara,UZ,39.78,64.48,0.28,1,0,0,0,,0,0,BHK
EXISTS,SPARSE,UGC,Urgench,Urgench,UZ,41.58,60.64,0.18,1,0,0,0,,0,0,UGC
EXISTS,SPARSE,NMA,Namangan,Namangan,UZ,40.98,71.56,0.65,0,0,0,0,,0,0,NMA
EXISTS,SPARSE,NCU,Nukus,Nukus,UZ,42.49,59.62,0.3,0,0,0,0,,0,0,NCU
EXISTS,SPARSE,OSS,Osh,Osh,KG,40.61,72.79,0.3,0,0,0,0,,0,0,OSS
EXISTS,SPARSE,LBD,Khujand,Khujand,TJ,40.22,69.69,0.18,0,0,0,0,,0,0,LBD
EXISTS,SPARSE,BUS,Batumi Intl,Batumi,GE,41.61,41.6,0.17,1,0,0,0,,0,0,BUS
EXISTS,SPARSE,KUT,Kutaisi Intl,Kutaisi,GE,42.18,42.48,0.15,0,0,0,0,,0,0,KUT